[{"name":"cupidatat","coordinates":{"lat":"00.629","lng":"109.2108"},"country":"Greece","state":"ex","street":"anim","streetNo":"8795","unit":"room 174","zip":"99428"},{"name":"occaecat","coordinates":{"lat":"-66.5844","lng":"-16.1056"},"country":"Greece","street":"irure","streetNo":"568","unit":"unit 153","zip":"78934"},{"name":"esse","coordinates":{"lat":"27.4717","lng":"-162.5543"},"country":"Sweden","street":"anim","streetNo":"4794","unit":"suite 88","zip":"82163"},{"name":"velit","coordinates":{"lat":"-37.5968","lng":"159.229"},"country":"Argentina","state":"ipsum","street":"elit","streetNo":"7868","unit":"apt 284","zip":"67133"},{"name":"ut","coordinates":{"lat":"-68.4492","lng":"-157.1614"},"country":"Pakistan","street":"pariatur","streetNo":"3151","unit":"apt 169","zip":"86608"},{"name":"do","coordinates":{"lat":"22.9416","lng":"-102.7745"},"country":"Brazil","state":"qui","street":"aliquip","streetNo":"5911","unit":"suite 236","zip":"31273"},{"name":"mollit","coordinates":{"lat":"18.7711","lng":"141.271"},"country":"Brazil","street":"dolore","streetNo":"5077","unit":"suite 64","zip":"78235"},{"name":"nostrud","coordinates":{"lat":"83.0131","lng":"-23.6695"},"country":"U.S.A.","street":"labore","streetNo":"8005","unit":"apt 230","zip":"93319"},{"name":"enim","coordinates":{"lat":"54.1601","lng":"-170.6385"},"country":"Germany","state":"ipsum","street":"sit","streetNo":"2862","unit":"room 496","zip":"84932"},{"name":"eiusmod","coordinates":{"lat":"14.5611","lng":"-128.1181"},"country":"U.S.A.","street":"aliquip","streetNo":"5515","unit":"apt 444","zip":"24589"}]